[
  {
    "id": "30-springhurst-avenue",
    "name": "30 Springhurst Avenue",
    "address": "30 Springhurst Avenue, Toronto, ON",
    "city": "Toronto",
    "lat": 43.6366,
    "lng": -79.4215,
    "price": 0,
    "suites": 122,
    "capRate": null,
    "status": "Active"
  },
  {
    "id": "56-south-forster-park-drive",
    "name": "56 South Forster Park Drive",
    "address": "56 South Forster Park Drive, Oakville, ON",
    "city": "Oakville",
    "lat": 43.4396,
    "lng": -79.6843,
    "price": 0,
    "suites": 15,
    "capRate": null,
    "status": "Under Contract"
  },
  {
    "id": "49-st-marys-river-drive",
    "name": "49 St. Mary's River Drive",
    "address": "49 St. Mary's River Drive, Sault Ste. Marie, ON",
    "city": "Sault Ste. Marie",
    "lat": 46.5136,
    "lng": -84.3358,
    "price": 0,
    "suites": 102,
    "capRate": null,
    "status": "Active"
  },
  {
    "id": "17-19-collier-street",
    "name": "17-19 Collier Street",
    "address": "17-19 Collier Street, St. Catharines, ON",
    "city": "St. Catharines",
    "lat": 43.1594,
    "lng": -79.2469,
    "price": 0,
    "suites": 32,
    "capRate": null,
    "status": "Active"
  },
  {
    "id": "49-wellington-street",
    "name": "49 Wellington Street",
    "address": "49 Wellington Street, St. Catharines, ON",
    "city": "St. Catharines",
    "lat": 43.159,
    "lng": -79.244,
    "price": 13390000,
    "suites": 50,
    "capRate": null,
    "status": "Sold"
  },
  {
    "id": "3905-riverside-drive-east",
    "name": "3905 Riverside Drive East",
    "address": "3905 Riverside Drive East, Windsor, ON",
    "city": "Windsor",
    "lat": 42.31,
    "lng": -83.0,
    "price": 0,
    "suites": 126,
    "capRate": null,
    "status": "Sold"
  },
  {
    "id": "182-jameson-avenue",
    "name": "182 Jameson Avenue",
    "address": "182 Jameson Avenue, Toronto, ON",
    "city": "Toronto",
    "lat": 43.6372,
    "lng": -79.4273,
    "price": 17630000,
    "suites": 82,
    "capRate": null,
    "status": "Sold"
  },
  {
    "id": "29-jane-street",
    "name": "29 Jane Street",
    "address": "29 Jane Street, Toronto, ON",
    "city": "Toronto",
    "lat": 43.649,
    "lng": -79.487,
    "price": 11520000,
    "suites": 36,
    "capRate": null,
    "status": "Sold"
  },
  {
    "id": "75-columbia-street-west",
    "name": "75 Columbia Street West",
    "address": "75 Columbia Street West, Waterloo, ON",
    "city": "Waterloo",
    "lat": 43.4643,
    "lng": -80.526,
    "price": 49700000,
    "suites": 403,
    "capRate": null,
    "status": "Sold"
  },
  {
    "id": "139-university-avenue-west",
    "name": "139 University Avenue West",
    "address": "139 University Avenue West, Waterloo, ON",
    "city": "Waterloo",
    "lat": 43.468,
    "lng": -80.531,
    "price": 11250000,
    "suites": 88,
    "capRate": null,
    "status": "Sold"
  },
  {
    "id": "1270-webster-street",
    "name": "1270 Webster Street",
    "address": "1270 Webster Street, London, ON",
    "city": "London",
    "lat": 42.972,
    "lng": -81.206,
    "price": 20350000,
    "suites": 135,
    "capRate": null,
    "status": "Sold"
  },
  {
    "id": "323-veltkamp-crescent",
    "name": "323 Veltkamp Crescent",
    "address": "323 Veltkamp Crescent, Kitchener, ON",
    "city": "Kitchener",
    "lat": 43.419,
    "lng": -80.473,
    "price": 53000000,
    "suites": 251,
    "capRate": null,
    "status": "Sold"
  },
  {
    "id": "80-guestville-avenue",
    "name": "80 Guestville Avenue",
    "address": "80 Guestville Avenue, Toronto, ON",
    "city": "Toronto",
    "lat": 43.649,
    "lng": -79.517,
    "price": 10900000,
    "suites": 53,
    "capRate": null,
    "status": "Sold"
  },
  {
    "id": "38-dixington-crescent",
    "name": "38 Dixington Crescent",
    "address": "38 Dixington Crescent, Toronto, ON",
    "city": "Toronto",
    "lat": 43.753,
    "lng": -79.295,
    "price": 30500000,
    "suites": 111,
    "capRate": null,
    "status": "Sold"
  },
  {
    "id": "709-kennedy-road",
    "name": "709 Kennedy Road",
    "address": "709 Kennedy Road, Toronto, ON",
    "city": "Toronto",
    "lat": 43.726,
    "lng": -79.264,
    "price": 20000000,
    "suites": 79,
    "capRate": null,
    "status": "Sold"
  },
  {
    "id": "1689-victoria-park-avenue",
    "name": "1689 Victoria Park Avenue",
    "address": "1689 Victoria Park Avenue, Toronto, ON",
    "city": "Toronto",
    "lat": 43.737,
    "lng": -79.309,
    "price": 11340000,
    "suites": 54,
    "capRate": null,
    "status": "Sold"
  },
  {
    "id": "2-laxton-avenue",
    "name": "2 Laxton Avenue",
    "address": "2 Laxton Avenue, Toronto, ON",
    "city": "Toronto",
    "lat": 43.638,
    "lng": -79.425,
    "price": 10950000,
    "suites": 52,
    "capRate": null,
    "status": "Sold"
  },
  {
    "id": "109-jameson-avenue",
    "name": "109 Jameson Avenue",
    "address": "109 Jameson Avenue, Toronto, ON",
    "city": "Toronto",
    "lat": 43.6375,
    "lng": -79.4275,
    "price": 38050000,
    "suites": 118,
    "capRate": null,
    "status": "Sold"
  },
  {
    "id": "420-eglinton-avenue-east",
    "name": "420 Eglinton Avenue East",
    "address": "420 Eglinton Avenue East, Toronto, ON",
    "city": "Toronto",
    "lat": 43.707,
    "lng": -79.379,
    "price": 17380000,
    "suites": 44,
    "capRate": null,
    "status": "Sold"
  },
  {
    "id": "26-park-street-east",
    "name": "26 Park Street East",
    "address": "26 Park Street East, Mississauga, ON",
    "city": "Mississauga",
    "lat": 43.589,
    "lng": -79.645,
    "price": 28050000,
    "suites": 82,
    "capRate": null,
    "status": "Sold"
  },
  {
    "id": "831-kennedy-road",
    "name": "831 Kennedy Road",
    "address": "831 Kennedy Road, Toronto, ON",
    "city": "Toronto",
    "lat": 43.735,
    "lng": -79.266,
    "price": 14350000,
    "suites": 50,
    "capRate": null,
    "status": "Sold"
  },
  {
    "id": "50-gerrard-street-east",
    "name": "50 Gerrard Street East",
    "address": "50 Gerrard Street East, Toronto, ON",
    "city": "Toronto",
    "lat": 43.659,
    "lng": -79.379,
    "price": 82800000,
    "suites": 188,
    "capRate": null,
    "status": "Sold"
  },
  {
    "id": "1050-castlefield-avenue",
    "name": "1050 Castlefield Avenue",
    "address": "1050 Castlefield Avenue, Toronto, ON",
    "city": "Toronto",
    "lat": 43.698,
    "lng": -79.433,
    "price": 17861000,
    "suites": 64,
    "capRate": null,
    "status": "Sold"
  },
  {
    "id": "2050-keele-street",
    "name": "2050 Keele Street",
    "address": "2050 Keele Street, Toronto, ON",
    "city": "Toronto",
    "lat": 43.693,
    "lng": -79.47,
    "price": 59564000,
    "suites": 187,
    "capRate": null,
    "status": "Sold"
  },
  {
    "id": "8-milepost-place",
    "name": "8 Milepost Place",
    "address": "8 Milepost Place, Toronto, ON",
    "city": "Toronto",
    "lat": 43.753,
    "lng": -79.292,
    "price": 21204000,
    "suites": 76,
    "capRate": null,
    "status": "Sold"
  },
  {
    "id": "2570-kingston-road",
    "name": "2570 Kingston Road",
    "address": "2570 Kingston Road, Toronto, ON",
    "city": "Toronto",
    "lat": 43.718,
    "lng": -79.241,
    "price": 32511671,
    "suites": 117,
    "capRate": null,
    "status": "Sold"
  },
  {
    "id": "740-midland-avenue",
    "name": "740 Midland Avenue",
    "address": "740 Midland Avenue, Toronto, ON",
    "city": "Toronto",
    "lat": 43.726,
    "lng": -79.272,
    "price": 49146000,
    "suites": 174,
    "capRate": null,
    "status": "Sold"
  },
  {
    "id": "700-spadina-avenue",
    "name": "Oak House (700 Spadina Avenue)",
    "address": "700 Spadina Avenue, Toronto, ON",
    "city": "Toronto",
    "lat": 43.6607,
    "lng": -79.4042,
    "price": 0,
    "suites": 0,
    "capRate": null,
    "status": "Active"
  },
  {
    "id": "89-chestnut-street",
    "name": "Chestnut Residence (89 Chestnut Street)",
    "address": "89 Chestnut Street, Toronto, ON",
    "city": "Toronto",
    "lat": 43.6533,
    "lng": -79.3874,
    "price": 0,
    "suites": 0,
    "capRate": null,
    "status": "Active"
  },
  {
    "id": "231-vaughan-road",
    "name": "231 Vaughan Road",
    "address": "231 Vaughan Road, Toronto, ON",
    "city": "Toronto",
    "lat": 43.6838,
    "lng": -79.4251,
    "price": 0,
    "suites": 46,
    "capRate": null,
    "status": "Active"
  },
  {
    "id": "149-cosburn-avenue",
    "name": "149 Cosburn Avenue",
    "address": "149 Cosburn Avenue, Toronto, ON",
    "city": "Toronto",
    "lat": 43.6887,
    "lng": -79.3475,
    "price": 0,
    "suites": 35,
    "capRate": null,
    "status": "Active"
  },
  {
    "id": "116-spencer-avenue",
    "name": "116 Spencer Avenue",
    "address": "116 Spencer Avenue, Toronto, ON",
    "city": "Toronto",
    "lat": 43.6376,
    "lng": -79.4294,
    "price": 0,
    "suites": 35,
    "capRate": null,
    "status": "Active"
  },
  {
    "id": "165-colborne-avenue",
    "name": "165 Colborne Avenue",
    "address": "165 Colborne Avenue, Richmond Hill, ON",
    "city": "Richmond Hill",
    "lat": 43.8649,
    "lng": -79.4384,
    "price": 0,
    "suites": 0,
    "capRate": null,
    "status": "Active"
  },
  {
    "id": "1083-main-street-east",
    "name": "1083 Main Street East",
    "address": "1083 Main Street East, Hamilton, ON",
    "city": "Hamilton",
    "lat": 43.242,
    "lng": -79.8188,
    "price": 0,
    "suites": 0,
    "capRate": null,
    "status": "Active"
  }
]